DEBUG : GPS : 18:56:10.063 : $GPRMC,185609.00,V,,,,,,,180413,,,N*71  $GPGGA,185609.00,,,,,0,00,99.99,,,,,,*65  $GPGSV,1,1,04,08,,,37,09,,,31,17,,,24,28,,,37*74   
DEBUG : GPS : 18:56:11.063 : $GPRMC,185610.00,V,,,,,,,180413,,,N*79  $GPGGA,185610.00,,,,,0,00,99.99,,,,,,*6D  $GPGSV,1,1,04,08,,,37,09,,,31,17,,,24,28,,,37*74   
DEBUG : GPS : 18:56:12.063 : $GPRMC,185609.00,V,,,,,,,180413,,,N*71  $GPGGA,185609.00,,,,,0,00,99.99,,,,,,*65  $GPGSV,1,1,04,08,,,37,09,,,31,17,,,23,28,,,36*72   
DEBUG : GPS : 18:56:13.063 : $GPRMC,185610.00,V,,,,,,,180413,,,N*79  $GPGGA,185610.00,,,,,0,00,99.99,,,,,,*6D  $GPGSV,1,1,04,08,,,36,09,,,31,17,,,23,28,,,36*73   
DEBUG : GPS : 18:56:14.064 : $GPRMC,185611.00,V,,,,,,,180413,,,N*78  $GPGGA,185611.00,,,,,0,00,99.99,,,,,,*6C  $GPGSV,1,1,04,08,,,36,09,,,31,17,,,23,28,,,36*73   
DEBUG : GPS : 18:56:15.064 : $GPRMC,185612.00,V,,,,,,,180413,,,N*7B  $GPGGA,185612.00,,,,,0,00,99.99,,,,,,*6F  $GPGSV,1,1,04,08,,,36,09,,,32,17,,,23,28,,,36*70   
DEBUG : GPS : 18:56:16.064 : $GPRMC,185613.00,V,,,,,,,180413,,,N*7A  $GPGGA,185613.00,,,,,0,00,99.99,,,,,,*6E  $GPGSV,1,1,04,08,,,36,09,,,31,17,,,22,28,,,37*73   
DEBUG : GPS : 18:56:17.063 : $GPRMC,185614.00,V,,,,,,,180413,,,N*7D  $GPGGA,185614.00,,,,,0,00,99.99,,,,,,*69  $GPGSV,1,1,04,08,,,36,09,,,32,17,,,22,28,,,37*70   
DEBUG : GPS : 18:56:18.063 : $GPRMC,185615.00,V,,,,,,,180413,,,N*7C  $GPGGA,185615.00,,,,,0,00,99.99,,,,,,*68  $GPGSV,1,1,04,08,,,37,09,,,32,17,,,22,28,,,37*71   
DEBUG : GPS : 18:56:19.063 : $GPRMC,185616.00,V,,,,,,,180413,,,N*7F  $GPGGA,185616.00,,,,,0,00,99.99,,,,,,*6B  $GPGSV,1,1,04,08,,,36,09,,,31,17,,,22,28,,,38*7C   
DEBUG : GPS : 18:56:20.063 : $GPRMC,185617.00,V,,,,,,,180413,,,N*7E  $GPGGA,185617.00,,,,,0,00,99.99,,,,,,*6A  $GPGSV,1,1,04,08,,,36,09,,,31,17,,,22,28,,,38*7C   
DEBUG : GPS : 18:56:21.063 : $GPRMC,185618.00,V,,,,,,,180413,,,N*71  $GPGGA,185618.00,,,,,0,00,99.99,,,,,,*65  $GPGSV,1,1,04,08,,,36,09,,,32,17,,,22,28,,,38*7F   
DEBUG : GPS : 18:56:22.063 : $GPRMC,185619.00,V,,,,,,,180413,,,N*70  $GPGGA,185619.00,,,,,0,00,99.99,,,,,,*64  $GPGSV,1,1,04,08,,,36,09,,,31,17,,,22,28,,,38*7C   
DEBUG : GPS : 18:56:23.063 : $GPRMC,185620.00,V,,,,,,,180413,,,N*7A  $GPGGA,185620.00,,,,,0,00,99.99,,,,,,*6E  $GPGSV,1,1,04,08,,,36,09,,,31,17,,,23,28,,,38*7D   
DEBUG : GPS : 18:56:24.064 : $GPRMC,185621.00,V,,,,,,,180413,,,N*7B  $GPGGA,185621.00,,,,,0,00,99.99,,,,,,*6F  $GPGSV,1,1,04,08,,,36,09,,,31,17,,,23,28,,,39*7C   
DEBUG : GPS : 18:56:25.064 : $GPRMC,185622.00,V,,,,,,,180413,,,N*78  $GPGGA,185622.00,,,,,0,00,99.99,,,,,,*6C  $GPGSV,1,1,04,08,,,35,09,,,31,17,,,23,28,,,39*7F   
DEBUG : GPS : 18:56:26.064 : $GPRMC,185623.00,V,,,,,,,180413,,,N*79  $GPGGA,185623.00,,,,,0,00,99.99,,,,,,*6D  $GPGSV,1,1,04,08,,,36,09,,,31,17,,,23,28,,,39*7C   
DEBUG : GPS : 18:56:27.064 : $GPRMC,185624.00,V,,,,,,,180413,,,N*7E  $GPGGA,185624.00,,,,,0,00,99.99,,,,,,*6A  $GPGSV,1,1,04,08,,,36,09,,,32,17,,,23,28,,,39*7F   
DEBUG : GPS : 18:56:28.064 : $GPRMC,185625.00,V,,,,,,,180413,,,N*7F  $GPGGA,185625.00,,,,,0,00,99.99,,,,,,*6B  $GPGSV,1,1,04,08,,,36,09,,,31,17,,,23,28,,,38*7D   
DEBUG : GPS : 18:56:29.064 : $GPRMC,185626.00,V,,,,,,,180413,,,N*7C  $GPGGA,185626.00,,,,,0,00,99.99,,,,,,*68  $GPGSV,1,1,04,08,,,36,09,,,31,17,,,24,28,,,38*7A   
DEBUG : GPS : 18:56:30.064 : $GPRMC,185627.00,V,,,,,,,180413,,,N*7D  $GPGGA,185627.00,,,,,0,00,99.99,,,,,,*69  $GPGSV,1,1,04,08,,,36,09,,,31,17,,,23,28,,,38*7D   
DEBUG : GPS : 18:56:31.064 : $GPRMC,185628.00,V,,,,,,,180413,,,N*72  $GPGGA,185628.00,,,,,0,00,99.99,,,,,,*66  $GPGSV,1,1,04,08,,,36,09,,,31,17,,,24,28,,,38*7A   
DEBUG : GPS : 18:56:32.064 : $GPRMC,185629.00,V,,,,,,,180413,,,N*73  $GPGGA,185629.00,,,,,0,00,99.99,,,,,,*67  $GPGSV,1,1,04,08,,,36,09,,,30,17,,,23,28,,,38*7C   
DEBUG : GPS : 18:56:33.064 : $GPRMC,185630.00,V,,,,,,,180413,,,N*7B  $GPGGA,185630.00,,,,,0,00,99.99,,,,,,*6F  $GPGSV,1,1,04,08,,,36,09,,,30,17,,,24,28,,,38*7B   
DEBUG : GPS : 18:56:34.064 : $GPRMC,185631.00,V,,,,,,,180413,,,N*7A  $GPGGA,185631.00,,,,,0,00,99.99,,,,,,*6E  $GPGSV,1,1,04,08,,,36,09,,,30,17,,,24,28,,,38*7B   
DEBUG : GPS : 18:56:35.064 : $GPRMC,185632.00,V,,,,,,,180413,,,N*79  $GPGGA,185632.00,,,,,0,00,99.99,,,,,,*6D  $GPGSV,1,1,04,08,,,36,09,,,30,17,,,25,28,,,38*7A   
DEBUG : GPS : 18:56:35.630 : $GPRMC,185632.50,V,,,,,,,180413,,,N*7C  $GPGGA,185632.50,,,,,0,03,4.11,,,,,,*5F  $GPGSV,1,1,04,08,78,206,36,09,20,226,29,17,,,25,28,45,253,39*49   
DEBUG : GPS : 18:56:36.159 : $GPRMC,185633.00,A,4021.28438,S,17536.72305,E,1.540,0.53,180413,,,A*77  $GPGGA,185633.00,4021.28438,S,17536.72305,E,1,03,4.11,0.2,M,18.9,M,,*49  $GPGSV,1,1,04,08,78,206,36,09,20,226,29,17,,,25,28,45,253,39*49   
DEBUG : GPS : 18:56:37.159 : $GPRMC,185634.00,A,4021.28564,S,17536.72395,E,1.076,1.02,180413,,,A*74  $GPGGA,185634.00,4021.28564,S,17536.72395,E,1,03,4.11,0.1,M,18.9,M,,*4C  $GPGSV,1,1,04,08,78,206,36,09,20,226,29,17,,,25,28,45,253,39*49   
DEBUG : GPS : 18:56:38.158 : $GPRMC,185635.00,A,4021.28649,S,17536.72433,E,1.135,2.72,180413,,,A*70  $GPGGA,185635.00,4021.28649,S,17536.72433,E,1,03,4.11,0.0,M,18.9,M,,*4B  $GPGSV,1,1,04,08,78,206,36,09,20,226,29,17,,,25,28,45,253,39*49   
DEBUG : GPS : 18:56:39.160 : $GPRMC,185636.00,A,4021.28691,S,17536.72458,E,1.635,2.16,180413,,,A*7E  $GPGGA,185636.00,4021.28691,S,17536.72458,E,1,03,4.12,-0.1,M,18.9,M,,*6F  $GPGSV,1,1,04,08,78,206,36,09,20,226,28,17,,,25,28,45,253,40*46   
DEBUG : GPS : 18:56:40.160 : $GPRMC,185637.00,A,4021.28743,S,17536.72506,E,1.154,1.56,180413,,,A*7C  $GPGGA,185637.00,4021.28743,S,17536.72506,E,1,03,4.12,-0.1,M,18.9,M,,*6A  $GPGSV,1,1,04,08,78,206,36,09,20,226,28,17,,,25,28,45,253,40*46   
DEBUG : GPS : 18:56:41.155 : $GPRMC,185638.00,A,4021.28827,S,17536.72568,E,0.183,,180413,,,A*61  $GPGGA,185638.00,4021.28827,S,17536.72568,E,1,03,4.12,-0.1,M,18.9,M,,*60  $GPGSV,1,1,04,08,78,206,36,09,20,226,28,17,,,25,28,45,253,40*46   
DEBUG : GPS : 18:56:42.160 : $GPRMC,185639.00,A,4021.28868,S,17536.72638,E,0.545,4.01,180413,,,A*78  $GPGGA,185639.00,4021.28868,S,17536.72638,E,1,03,4.12,0.0,M,18.9,M,,*40  $GPGSV,1,1,04,08,78,206,36,09,20,226,28,17,,,25,28,45,253,40*46   
DEBUG : GPS : 18:56:43.160 : $GPRMC,185640.00,A,4021.28882,S,17536.72676,E,0.403,1.54,180413,,,A*7E  $GPGGA,185640.00,4021.28882,S,17536.72676,E,1,03,4.12,0.0,M,18.9,M,,*40  $GPGSV,1,1,04,08,78,206,36,09,20,226,27,17,,,25,28,45,253,40*49   
DEBUG : GPS : 18:56:44.159 : $GPRMC,185641.00,A,4021.28937,S,17536.72720,E,0.630,10.88,180413,,,A*41  $GPGGA,185641.00,4021.28937,S,17536.72720,E,1,03,4.12,0.0,M,18.9,M,,*4C  $GPGSV,1,1,04,08,78,206,36,09,20,226,27,17,,,25,28,45,253,39*47   
DEBUG : GPS : 18:56:45.161 : $GPRMC,185642.00,A,4021.28954,S,17536.72738,E,0.425,18.32,180413,,,A*41  $GPGGA,185642.00,4021.28954,S,17536.72738,E,1,03,4.12,0.1,M,18.9,M,,*42  $GPGSV,1,1,04,08,78,206,35,09,20,226,27,17,,,24,28,45,253,38*44   
DEBUG : GPS : 18:56:46.160 : $GPRMC,185643.00,A,4021.28910,S,17536.72771,E,0.857,18.53,180413,,,A*43  $GPGGA,185643.00,4021.28910,S,17536.72771,E,1,03,4.12,0.0,M,18.9,M,,*4F  $GPGSV,1,1,04,08,78,206,35,09,20,226,26,17,,,24,28,45,253,36*4B   
DEBUG : GPS : 18:56:47.153 : $GPRMC,185644.00,A,4021.28897,S,17536.72745,E,0.540,17.59,180413,,,A*43  $GPGGA,185644.00,4021.28897,S,17536.72745,E,1,03,4.12,0.1,M,18.9,M,,*40  $GPGSV,1,1,04,08,78,206,35,09,20,226,26,17,,,24,28,45,253,38*45   
DEBUG : GPS : 18:56:48.188 : $GPRMC,185645.00,A,4021.28921,S,17536.72691,E,0.480,10.40,180413,,,A*44  $GPGGA,185645.00,4021.28921,S,17536.72691,E,1,03,4.12,0.1,M,18.9,M,,*45  $GPGSV,2,1,05,08,78,206,36,09,20,226,26,17,,,24,19,36,131,*4E  $GPGSV,2,2,05,28,45,253,38*48   
DEBUG : GPS : 18:56:49.183 : $GPRMC,185646.00,A,4021.28906,S,17536.72670,E,0.441,4.73,180413,,,A*75  $GPGGA,185646.00,4021.28906,S,17536.72670,E,1,03,4.13,0.1,M,18.9,M,,*4D  $GPGSV,2,1,05,08,78,206,36,09,20,226,26,17,,,25,19,36,131,*4F  $GPGSV,2,2,05,28,45,253,37*47   
DEBUG : GPS : 18:56:50.184 : $GPRMC,185647.00,A,4021.28865,S,17536.72610,E,0.740,359.76,180413,,,A*7A  $GPGGA,185647.00,4021.28865,S,17536.72610,E,1,03,4.13,0.1,M,18.9,M,,*4E  $GPGSV,2,1,05,08,78,206,35,09,20,226,26,17,,,25,19,36,131,*4C  $GPGSV,2,2,05,28,45,253,37*47   
DEBUG : GPS : 18:56:51.183 : $GPRMC,185648.00,A,4021.28852,S,17536.72552,E,0.708,353.50,180413,,,A*76  $GPGGA,185648.00,4021.28852,S,17536.72552,E,1,03,4.13,0.1,M,18.9,M,,*40  $GPGSV,2,1,05,08,78,206,36,09,20,226,26,17,,,25,19,36,131,*4F  $GPGSV,2,2,05,28,45,253,37*47   
DEBUG : GPS : 18:56:52.185 : $GPRMC,185649.00,A,4021.28781,S,17536.72516,E,0.698,350.24,180413,,,A*7E  $GPGGA,185649.00,4021.28781,S,17536.72516,E,1,03,4.13,0.2,M,18.9,M,,*43  $GPGSV,2,1,05,08,78,206,36,09,20,226,26,17,,,25,19,36,131,*4F  $GPGSV,2,2,05,28,45,253,37*47   
DEBUG : GPS : 18:56:53.187 : $GPRMC,185650.00,A,4021.28709,S,17536.72484,E,1.035,349.80,180413,,,A*7A  $GPGGA,185650.00,4021.28709,S,17536.72484,E,1,03,4.13,0.2,M,18.9,M,,*41  $GPGSV,2,1,05,08,78,206,36,09,20,226,26,17,,,25,19,36,131,25*48  $GPGSV,2,2,05,28,45,253,37*47   
DEBUG : GPS : 18:56:54.187 : $GPRMC,185651.00,A,4021.28680,S,17536.72435,E,0.723,349.81,180413,,,A*71  $GPGGA,185651.00,4021.28680,S,17536.72435,E,1,03,4.13,0.2,M,18.9,M,,*4A  $GPGSV,2,1,05,08,78,206,36,09,20,226,26,17,,,26,19,36,131,24*4A  $GPGSV,2,2,05,28,45,253,38*48   
DEBUG : GPS : 18:56:55.187 : $GPRMC,185652.00,A,4021.28618,S,17536.72440,E,1.091,351.07,180413,,,A*79  $GPGGA,185652.00,4021.28618,S,17536.72440,E,1,03,4.13,0.2,M,18.9,M,,*4A  $GPGSV,2,1,05,08,78,206,37,09,20,226,26,17,,,26,19,36,131,22*4D  $GPGSV,2,2,05,28,45,253,38*48   
DEBUG : GPS : 18:56:56.187 : $GPRMC,185653.00,A,4021.28612,S,17536.72434,E,0.473,352.31,180413,,,A*7E  $GPGGA,185653.00,4021.28612,S,17536.72434,E,1,03,4.13,0.2,M,18.9,M,,*42  $GPGSV,2,1,05,08,78,206,37,09,20,226,26,17,,,26,19,36,131,22*4D  $GPGSV,2,2,05,28,45,253,38*48   
DEBUG : GPS : 18:56:57.187 : $GPRMC,185654.00,A,4021.28660,S,17536.72429,E,0.675,345.53,180413,,,A*76  $GPGGA,185654.00,4021.28660,S,17536.72429,E,1,03,4.13,0.2,M,18.9,M,,*4C  $GPGSV,2,1,05,08,78,206,37,09,20,226,26,17,,,26,19,36,131,21*4E  $GPGSV,2,2,05,28,45,253,38*48   
DEBUG : GPS : 18:56:58.187 : $GPRMC,185655.00,A,4021.28723,S,17536.72422,E,0.951,337.51,180413,,,A*74  $GPGGA,185655.00,4021.28723,S,17536.72422,E,1,03,4.13,0.1,M,18.9,M,,*43  $GPGSV,2,1,05,08,78,206,37,09,20,226,26,17,,,26,19,36,131,20*4F  $GPGSV,2,2,05,28,45,253,38*48   
DEBUG : GPS : 18:56:59.187 : $GPRMC,185656.00,A,4021.28758,S,17536.72416,E,0.728,329.91,180413,,,A*7F  $GPGGA,185656.00,4021.28758,S,17536.72416,E,1,03,4.13,0.1,M,18.9,M,,*4B  $GPGSV,2,1,05,08,78,206,37,09,20,226,26,17,,,26,19,36,131,21*4E  $GPGSV,2,2,05,28,45,253,38*48   
DEBUG : GPS : 18:57:00.186 : $GPRMC,185657.00,A,4021.28781,S,17536.72444,E,0.471,340.70,180413,,,A*72  $GPGGA,185657.00,4021.28781,S,17536.72444,E,1,03,4.14,0.1,M,18.9,M,,*4E  $GPGSV,2,1,05,08,78,206,37,09,20,226,27,17,,,26,19,36,131,20*4E  $GPGSV,2,2,05,28,45,253,38*48   
DEBUG : GPS : 18:57:01.186 : $GPRMC,185658.00,A,4021.28844,S,17536.72449,E,0.457,331.87,180413,,,A*7C  $GPGGA,185658.00,4021.28844,S,17536.72449,E,1,03,4.14,0.1,M,18.9,M,,*4A  $GPGSV,2,1,05,08,78,206,36,09,20,226,27,17,,,27,19,36,131,18*45  $GPGSV,2,2,05,28,45,253,38*48   
DEBUG : GPS : 18:57:02.186 : $GPRMC,185659.00,A,4021.28902,S,17536.72460,E,0.837,322.26,180413,,,A*76  $GPGGA,185659.00,4021.28902,S,17536.72460,E,1,03,4.14,0.1,M,18.9,M,,*43  $GPGSV,2,1,05,08,78,206,36,09,20,226,27,17,,,27,19,36,131,17*4A  $GPGSV,2,2,05,28,45,253,38*48   
DEBUG : GPS : 18:57:03.187 : $GPRMC,185700.00,A,4021.28884,S,17536.72470,E,0.318,333.50,180413,,,A*72  $GPGGA,185700.00,4021.28884,S,17536.72470,E,1,03,4.14,0.1,M,18.9,M,,*40  $GPGSV,2,1,05,08,78,206,36,09,20,226,27,17,,,27,19,36,131,15*48  $GPGSV,2,2,05,28,45,253,37*47   
DEBUG : GPS : 18:57:04.186 : $GPRMC,185701.00,A,4021.28896,S,17536.72474,E,0.972,323.49,180413,,,A*7B  $GPGGA,185701.00,4021.28896,S,17536.72474,E,1,03,4.14,0.1,M,18.9,M,,*46  $GPGSV,2,1,05,08,78,206,36,09,20,226,27,17,,,27,19,36,131,12*4F  $GPGSV,2,2,05,28,45,253,37*47   
DEBUG : GPS : 18:57:05.186 : $GPRMC,185702.00,A,4021.28827,S,17536.72476,E,0.462,333.40,180413,,,A*74  $GPGGA,185702.00,4021.28827,S,17536.72476,E,1,03,4.14,0.1,M,18.9,M,,*4D  $GPGSV,2,1,05,08,78,206,36,09,20,226,27,17,,,28,19,36,131,10*42  $GPGSV,2,2,05,28,45,253,37*47   
DEBUG : GPS : 18:57:06.202 : $GPRMC,185703.00,A,4021.30751,S,17536.72799,E,0.589,325.31,180413,,,A*75  $GPGGA,185703.00,4021.30751,S,17536.72799,E,1,04,3.55,2.6,M,18.9,M,,*49  $GPGSV,2,1,05,08,78,206,37,09,20,226,27,17,13,322,28,19,36,131,14*76  $GPGSV,2,2,05,28,45,253,37*47   
DEBUG : GPS : 18:57:07.197 : $GPRMC,185704.00,A,4021.31068,S,17536.72716,E,0.233,323.15,180413,,,A*7F  $GPGGA,185704.00,4021.31068,S,17536.72716,E,1,04,3.55,4.4,M,18.9,M,,*41  $GPGSV,2,1,05,08,78,206,37,09,20,226,27,17,13,322,28,19,36,131,15*77  $GPGSV,2,2,05,28,45,253,37*47   
DEBUG : GPS : 18:57:08.196 : $GPRMC,185705.00,A,4021.31204,S,17536.72643,E,0.641,314.82,180413,,,A*7C  $GPGGA,185705.00,4021.31204,S,17536.72643,E,1,04,3.55,6.1,M,18.9,M,,*4E  $GPGSV,2,1,05,08,78,206,37,09,20,226,27,17,13,322,28,19,36,131,16*74  $GPGSV,2,2,05,28,45,253,37*47   
DEBUG : GPS : 18:57:09.195 : $GPRMC,185706.00,A,4021.31298,S,17536.72584,E,0.836,308.43,180413,,,A*7C  $GPGGA,185706.00,4021.31298,S,17536.72584,E,1,04,3.55,7.7,M,18.9,M,,*47  $GPGSV,2,1,05,08,78,206,36,09,20,226,27,17,13,322,28,19,36,131,17*74  $GPGSV,2,2,05,28,45,253,37*47   
DEBUG : GPS : 18:57:10.196 : $GPRMC,185707.00,A,4021.31323,S,17536.72524,E,0.253,315.30,180413,,,A*77  $GPGGA,185707.00,4021.31323,S,17536.72524,E,1,04,3.55,9.4,M,18.9,M,,*40  $GPGSV,2,1,05,08,78,206,36,09,20,226,28,17,13,322,28,19,36,131,18*74  $GPGSV,2,2,05,28,45,253,37*47   
DEBUG : GPS : 18:57:11.198 : $GPRMC,185708.00,A,4021.31335,S,17536.72434,E,0.373,312.92,180413,,,A*73  $GPGGA,185708.00,4021.31335,S,17536.72434,E,1,04,3.55,11.2,M,18.9,M,,*77  $GPGSV,2,1,05,08,78,206,37,09,20,226,28,17,13,322,29,19,36,131,19*75  $GPGSV,2,2,05,28,45,253,37*47   
DEBUG : GPS : 18:57:12.198 : $GPRMC,185709.00,A,4021.31353,S,17536.72375,E,0.307,305.96,180413,,,A*71  $GPGGA,185709.00,4021.31353,S,17536.72375,E,1,04,3.55,12.8,M,18.9,M,,*7D  $GPGSV,2,1,05,08,78,206,36,09,20,226,28,17,13,322,29,19,36,131,20*7E  $GPGSV,2,2,05,28,45,253,37*47   
DEBUG : GPS : 18:57:13.198 : $GPRMC,185710.00,A,4021.31341,S,17536.72302,E,0.474,303.10,180413,,,A*71  $GPGGA,185710.00,4021.31341,S,17536.72302,E,1,04,3.55,14.1,M,18.9,M,,*79  $GPGSV,2,1,05,08,78,206,36,09,20,226,28,17,13,322,29,19,36,131,21*7F  $GPGSV,2,2,05,28,45,253,37*47   
DEBUG : GPS : 18:57:14.197 : $GPRMC,185711.00,A,4021.31340,S,17536.72270,E,0.409,294.42,180413,,,A*77  $GPGGA,185711.00,4021.31340,S,17536.72270,E,1,04,3.55,15.4,M,18.9,M,,*79  $GPGSV,2,1,05,08,78,206,36,09,20,226,28,17,13,322,29,19,36,131,22*7C  $GPGSV,2,2,05,28,45,253,38*48   
DEBUG : GPS : 18:57:15.197 : $GPRMC,185712.00,A,4021.31330,S,17536.72219,E,0.329,292.88,180413,,,A*79  $GPGGA,185712.00,4021.31330,S,17536.72219,E,1,04,3.55,16.4,M,18.9,M,,*71  $GPGSV,2,1,05,08,78,206,36,09,20,226,28,17,13,322,29,19,36,131,22*7C  $GPGSV,2,2,05,28,45,253,38*48   
DEBUG : GPS : 18:57:16.191 : $GPRMC,185713.00,A,4021.31321,S,17536.72183,E,0.062,,180413,,,A*63  $GPGGA,185713.00,4021.31321,S,17536.72183,E,1,04,3.56,17.3,M,18.9,M,,*75  $GPGSV,2,1,05,08,78,206,36,09,20,226,28,17,13,322,29,19,36,131,21*7F  $GPGSV,2,2,05,28,45,253,38*48   
DEBUG : GPS : 18:57:17.197 : $GPRMC,185714.00,A,4021.31311,S,17536.72148,E,0.400,288.71,180413,,,A*7A  $GPGGA,185714.00,4021.31311,S,17536.72148,E,1,04,3.56,18.0,M,18.9,M,,*7A  $GPGSV,2,1,05,08,78,206,36,09,20,226,27,17,13,322,30,19,36,131,18*72  $GPGSV,2,2,05,28,45,253,38*48   
DEBUG : GPS : 18:57:18.199 : $GPRMC,185715.00,A,4021.31289,S,17536.72124,E,0.255,292.53,180413,,,A*7C  $GPGGA,185715.00,4021.31289,S,17536.72124,E,1,04,3.56,18.7,M,18.9,M,,*76  $GPGSV,2,1,05,08,78,206,36,09,20,226,27,17,13,322,29,19,36,131,18*7A  $GPGSV,2,2,05,28,45,253,38*48   
DEBUG : GPS : 18:57:19.189 : $GPRMC,185716.00,A,4021.31271,S,17536.72082,E,0.152,,180413,,,A*60  $GPGGA,185716.00,4021.31271,S,17536.72082,E,1,04,3.56,19.4,M,18.9,M,,*7D  $GPGSV,2,1,05,08,78,206,37,09,20,226,27,17,13,322,29,19,36,131,18*7B  $GPGSV,2,2,05,28,45,253,38*48   
DEBUG : GPS : 18:57:20.197 : $GPRMC,185717.00,A,4021.31292,S,17536.72008,E,1.001,287.30,180413,,,A*78  $GPGGA,185717.00,4021.31292,S,17536.72008,E,1,04,3.56,20.0,M,18.9,M,,*7D  $GPGSV,2,1,05,08,78,206,37,09,20,226,26,17,13,322,29,19,36,131,16*74  $GPGSV,2,2,05,28,45,253,38*48   
DEBUG : GPS : 18:57:21.198 : $GPRMC,185718.00,A,4021.31316,S,17536.71951,E,1.065,281.89,180413,,,A*7A  $GPGGA,185718.00,4021.31316,S,17536.71951,E,1,04,3.56,20.4,M,18.9,M,,*7D  $GPGSV,2,1,05,08,78,206,37,09,20,226,24,17,13,322,30,19,36,131,17*7F  $GPGSV,2,2,05,28,45,253,37*47   
DEBUG : GPS : 18:57:22.197 : $GPRMC,185719.00,A,4021.31320,S,17536.71886,E,0.573,279.81,180413,,,A*79  $GPGGA,185719.00,4021.31320,S,17536.71886,E,1,04,3.56,20.8,M,18.9,M,,*7E  $GPGSV,2,1,05,08,78,206,37,09,20,226,23,17,13,322,30,19,36,131,16*79  $GPGSV,2,2,05,28,45,253,37*47   
DEBUG : GPS : 18:57:23.197 : $GPRMC,185720.00,A,4021.31310,S,17536.71816,E,0.371,279.16,180413,,,A*73  $GPGGA,185720.00,4021.31310,S,17536.71816,E,1,04,3.56,21.4,M,18.9,M,,*73  $GPGSV,2,1,05,08,78,206,37,09,20,226,25,17,13,322,29,19,36,131,14*75  $GPGSV,2,2,05,28,45,253,37*47   
DEBUG : GPS : 18:57:24.194 : $GPRMC,185721.00,A,4021.31318,S,17536.71697,E,0.660,276.69,180413,,,A*7F  $GPGGA,185721.00,4021.31318,S,17536.71697,E,1,04,3.56,21.9,M,18.9,M,,*70  $GPGSV,2,1,05,08,78,206,38,09,20,226,25,17,13,322,29,19,36,131,*7F  $GPGSV,2,2,05,28,45,253,37*47   
DEBUG : GPS : 18:57:25.195 : $GPRMC,185722.00,A,4021.31327,S,17536.71609,E,0.231,275.28,180413,,,A*71  $GPGGA,185722.00,4021.31327,S,17536.71609,E,1,04,3.56,22.4,M,18.9,M,,*76  $GPGSV,2,1,05,08,78,206,38,09,20,226,25,17,13,322,29,19,36,131,*7F  $GPGSV,2,2,05,28,45,253,37*47   
DEBUG : GPS : 18:57:26.189 : $GPRMC,185723.00,A,4021.31320,S,17536.71536,E,0.036,,180413,,,A*69  $GPGGA,185723.00,4021.31320,S,17536.71536,E,1,04,3.56,22.9,M,18.9,M,,*72  $GPGSV,2,1,05,08,78,206,38,09,20,226,26,17,13,322,29,19,36,131,*7C  $GPGSV,2,2,05,28,45,253,37*47   
DEBUG : GPS : 18:57:27.193 : $GPRMC,185724.00,A,4021.31326,S,17536.71458,E,0.371,271.80,180413,,,A*73  $GPGGA,185724.00,4021.31326,S,17536.71458,E,1,04,3.56,23.5,M,18.9,M,,*77  $GPGSV,2,1,05,08,78,206,38,09,20,226,26,17,13,322,29,19,36,131,*7C  $GPGSV,2,2,05,28,45,253,37*47   
DEBUG : GPS : 18:57:28.194 : $GPRMC,185725.00,A,4021.31341,S,17536.71356,E,1.035,270.89,180413,,,A*70  $GPGGA,185725.00,4021.31341,S,17536.71356,E,1,04,3.56,24.0,M,18.9,M,,*7C  $GPGSV,2,1,05,08,78,206,38,09,20,226,25,17,13,322,30,19,36,131,*77  $GPGSV,2,2,05,28,45,253,37*47   
DEBUG : GPS : 18:57:29.195 : $GPRMC,185726.00,A,4021.31337,S,17536.71272,E,0.677,273.14,180413,,,A*73  $GPGGA,185726.00,4021.31337,S,17536.71272,E,1,04,3.56,24.4,M,18.9,M,,*7D  $GPGSV,2,1,05,08,78,206,38,09,20,226,24,17,13,322,30,19,36,131,*76  $GPGSV,2,2,05,28,45,253,37*47   
DEBUG : GPS : 18:57:30.194 : $GPRMC,185727.00,A,4021.31342,S,17536.71215,E,0.360,272.22,180413,,,A*76  $GPGGA,185727.00,4021.31342,S,17536.71215,E,1,04,3.56,24.9,M,18.9,M,,*72  $GPGSV,2,1,05,08,78,206,38,09,20,226,25,17,13,322,30,19,36,131,*77  $GPGSV,2,2,05,28,45,253,37*47   
DEBUG : GPS : 18:57:31.196 : $GPRMC,185728.00,A,4021.31347,S,17536.71187,E,0.257,270.33,180413,,,A*73  $GPGGA,185728.00,4021.31347,S,17536.71187,E,1,04,3.56,25.4,M,18.9,M,,*7C  $GPGSV,2,1,05,08,78,206,38,09,20,226,26,17,13,322,30,19,36,131,*74  $GPGSV,2,2,05,28,45,253,38*48   
DEBUG : GPS : 18:57:32.194 : $GPRMC,185729.00,A,4021.31330,S,17536.71158,E,0.248,278.87,180413,,,A*79  $GPGGA,185729.00,4021.31330,S,17536.71158,E,1,04,3.56,25.9,M,18.9,M,,*72  $GPGSV,2,1,05,08,78,206,38,09,20,226,26,17,13,322,30,19,36,131,*74  $GPGSV,2,2,05,28,45,253,38*48   
DEBUG : GPS : 18:57:33.197 : $GPRMC,185730.00,A,4021.31303,S,17536.71116,E,0.266,283.11,180413,,,A*7C  $GPGGA,185730.00,4021.31303,S,17536.71116,E,1,04,3.56,26.5,M,18.9,M,,*7F  $GPGSV,2,1,05,08,78,206,38,09,20,226,27,17,13,322,30,19,36,131,*75  $GPGSV,2,2,05,28,45,253,38*48   
DEBUG : GPS : 18:57:34.196 : $GPRMC,185731.00,A,4021.31284,S,17536.71077,E,0.515,284.71,180413,,,A*77  $GPGGA,185731.00,4021.31284,S,17536.71077,E,1,04,3.56,27.2,M,18.9,M,,*70  $GPGSV,2,1,05,08,78,206,38,09,20,226,27,17,13,322,30,19,36,131,*75  $GPGSV,2,2,05,28,45,253,38*48   
DEBUG : GPS : 18:57:35.196 : $GPRMC,185732.00,A,4021.31296,S,17536.71041,E,0.628,279.83,180413,,,A*70  $GPGGA,185732.00,4021.31296,S,17536.71041,E,1,04,3.56,27.8,M,18.9,M,,*7F  $GPGSV,2,1,05,08,78,206,38,09,20,226,27,17,13,322,31,19,36,131,*74  $GPGSV,2,2,05,28,45,253,37*47   
DEBUG : GPS : 18:57:36.196 : $GPRMC,185733.00,A,4021.31287,S,17536.71019,E,0.377,281.05,180413,,,A*7A  $GPGGA,185733.00,4021.31287,S,17536.71019,E,1,04,3.57,28.3,M,18.9,M,,*76  $GPGSV,2,1,05,08,78,206,38,09,20,226,27,17,13,322,31,19,36,131,*74  $GPGSV,2,2,05,28,45,253,37*47   
DEBUG : GPS : 18:57:37.196 : $GPRMC,185734.00,A,4021.31257,S,17536.71007,E,0.305,284.61,180413,,,A*7D  $GPGGA,185734.00,4021.31257,S,17536.71007,E,1,04,3.57,28.8,M,18.9,M,,*78  $GPGSV,2,1,05,08,78,206,37,09,20,226,27,17,13,322,30,19,36,131,*7A  $GPGSV,2,2,05,28,45,253,37*47   
DEBUG : GPS : 18:57:38.196 : $GPRMC,185735.00,A,4021.31234,S,17536.70988,E,0.223,278.19,180413,,,A*7F  $GPGGA,185735.00,4021.31234,S,17536.70988,E,1,04,3.57,29.2,M,18.9,M,,*78  $GPGSV,2,1,05,08,78,206,37,09,20,226,27,17,13,322,30,19,36,131,*7A  $GPGSV,2,2,05,28,45,253,37*47   
DEBUG : GPS : 18:57:39.194 : $GPRMC,185736.00,A,4021.31201,S,17536.70980,E,0.674,283.49,180413,,,A*75  $GPGGA,185736.00,4021.31201,S,17536.70980,E,1,04,3.57,29.7,M,18.9,M,,*70  $GPGSV,2,1,05,08,78,206,37,09,20,226,28,17,13,322,31,19,36,131,*74  $GPGSV,2,2,05,28,45,253,37*47   
DEBUG : GPS : 18:57:40.190 : $GPRMC,185737.00,A,4021.31172,S,17536.70975,E,0.100,,180413,,,A*67  $GPGGA,185737.00,4021.31172,S,17536.70975,E,1,04,3.57,30.3,M,18.9,M,,*70  $GPGSV,2,1,05,08,78,206,37,09,20,226,28,17,13,322,30,19,36,131,*75  $GPGSV,2,2,05,28,45,253,37*47   
DEBUG : GPS : 18:57:41.196 : $GPRMC,185738.00,A,4021.31138,S,17536.70976,E,0.559,291.17,180413,,,A*7F  $GPGGA,185738.00,4021.31138,S,17536.70976,E,1,04,3.57,30.9,M,18.9,M,,*78  $GPGSV,2,1,05,08,78,206,37,09,20,226,28,17,13,322,31,19,36,131,*74  $GPGSV,2,2,05,28,45,253,37*47   
DEBUG : GPS : 18:57:42.196 : $GPRMC,185739.00,A,4021.31109,S,17536.70970,E,0.423,297.45,180413,,,A*77  $GPGGA,185739.00,4021.31109,S,17536.70970,E,1,04,3.57,31.5,M,18.9,M,,*70  $GPGSV,2,1,05,08,78,206,37,09,20,226,28,17,13,322,31,19,36,131,*74  $GPGSV,2,2,05,28,45,253,38*48   
DEBUG : GPS : 18:57:43.197 : $GPRMC,185740.00,A,4021.31096,S,17536.70990,E,0.559,307.75,180413,,,A*77  $GPGGA,185740.00,4021.31096,S,17536.70990,E,1,04,3.57,32.0,M,18.9,M,,*71  $GPGSV,2,1,05,08,78,206,37,09,20,226,28,17,13,322,31,19,36,131,*74  $GPGSV,2,2,05,28,45,253,38*48   
DEBUG : GPS : 18:57:44.192 : $GPRMC,185741.00,A,4021.31086,S,17536.71007,E,0.104,,180413,,,A*65  $GPGGA,185741.00,4021.31086,S,17536.71007,E,1,04,3.57,32.5,M,18.9,M,,*72  $GPGSV,2,1,05,08,78,206,38,09,20,226,28,17,13,322,31,19,36,131,25*7C  $GPGSV,2,2,05,28,45,253,38*48   
DEBUG : GPS : 18:57:45.198 : $GPRMC,185742.00,A,4021.31070,S,17536.71037,E,0.360,315.26,180413,,,A*71  $GPGGA,185742.00,4021.31070,S,17536.71037,E,1,04,3.57,32.8,M,18.9,M,,*76  $GPGSV,2,1,05,08,78,206,37,09,20,226,28,17,13,322,31,19,36,131,24*72  $GPGSV,2,2,05,28,45,253,38*48   
DEBUG : GPS : 18:57:46.199 : $GPRMC,185743.00,A,4021.31045,S,17536.71073,E,0.409,318.85,180413,,,A*7A  $GPGGA,185743.00,4021.31045,S,17536.71073,E,1,04,3.57,33.1,M,18.9,M,,*79  $GPGSV,2,1,05,08,78,206,37,09,20,226,28,17,13,322,31,19,36,131,22*74  $GPGSV,2,2,05,28,45,253,39*49   
DEBUG : GPS : 18:57:47.197 : $GPRMC,185744.00,A,4021.31046,S,17536.71107,E,0.272,309.09,180413,,,A*72  $GPGGA,185744.00,4021.31046,S,17536.71107,E,1,04,3.57,33.4,M,18.9,M,,*7A  $GPGSV,2,1,05,08,78,206,37,09,20,226,27,17,13,322,31,19,36,131,21*78  $GPGSV,2,2,05,28,45,253,39*49   
DEBUG : GPS : 18:57:48.200 : $GPRMC,185745.00,A,4021.31035,S,17536.71129,E,0.291,312.92,180413,,,A*7E  $GPGGA,185745.00,4021.31035,S,17536.71129,E,1,04,3.57,33.6,M,18.9,M,,*71  $GPGSV,2,1,05,08,78,206,37,09,20,226,28,17,13,322,32,19,36,131,22*77  $GPGSV,2,2,05,28,45,253,39*49   
DEBUG : GPS : 18:57:49.200 : $GPRMC,185746.00,A,4021.31022,S,17536.71164,E,0.725,319.01,180413,,,A*79  $GPGGA,185746.00,4021.31022,S,17536.71164,E,1,04,3.57,33.9,M,18.9,M,,*72  $GPGSV,2,1,05,08,78,206,37,09,20,226,27,17,13,322,32,19,36,131,21*7B  $GPGSV,2,2,05,28,45,253,39*49   
DEBUG : GPS : 18:57:50.197 : $GPRMC,185747.00,A,4021.31027,S,17536.71177,E,0.394,327.13,180413,,,A*7F  $GPGGA,185747.00,4021.31027,S,17536.71177,E,1,04,3.57,34.2,M,18.9,M,,*78  $GPGSV,2,1,05,08,78,206,37,09,20,226,27,17,13,322,32,19,36,131,21*7B  $GPGSV,2,2,05,28,45,253,39*49   
DEBUG : GPS : 18:57:51.198 : $GPRMC,185748.00,A,4021.31032,S,17536.71182,E,0.339,334.28,180413,,,A*73  $GPGGA,185748.00,4021.31032,S,17536.71182,E,1,04,3.57,34.4,M,18.9,M,,*7F  $GPGSV,2,1,05,08,78,206,37,09,20,226,27,17,13,322,32,19,36,131,21*7B  $GPGSV,2,2,05,28,45,253,39*49   
DEBUG : GPS : 18:57:52.198 : $GPRMC,185749.00,A,4021.31044,S,17536.71170,E,0.505,328.89,180413,,,A*71  $GPGGA,185749.00,4021.31044,S,17536.71170,E,1,04,3.57,34.6,M,18.9,M,,*70  $GPGSV,2,1,05,08,78,206,37,09,20,226,27,17,13,322,32,19,36,131,22*78  $GPGSV,2,2,05,28,45,253,39*49   
DEBUG : GPS : 18:57:53.198 : $GPRMC,185750.00,A,4021.31049,S,17536.71147,E,0.272,326.28,180413,,,A*72  $GPGGA,185750.00,4021.31049,S,17536.71147,E,1,04,3.57,34.9,M,18.9,M,,*7E  $GPGSV,2,1,05,08,78,205,37,09,20,226,27,17,13,322,32,19,36,131,21*78  $GPGSV,2,2,05,28,45,253,38*48   
DEBUG : GPS : 18:57:54.199 : $GPRMC,185751.00,A,4021.31053,S,17536.71159,E,0.481,332.87,180413,,,A*7D  $GPGGA,185751.00,4021.31053,S,17536.71159,E,1,04,3.57,35.2,M,18.9,M,,*71  $GPGSV,2,1,05,08,78,205,37,09,20,226,27,17,13,322,32,19,36,131,22*7B  $GPGSV,2,2,05,28,45,253,38*48   
DEBUG : GPS : 18:57:55.199 : $GPRMC,185752.00,A,4021.31063,S,17536.71159,E,0.437,339.64,180413,,,A*76  $GPGGA,185752.00,4021.31063,S,17536.71159,E,1,04,3.58,35.4,M,18.9,M,,*78  $GPGSV,2,1,05,08,78,205,37,09,20,226,27,17,13,322,32,19,36,131,20*79  $GPGSV,2,2,05,28,45,253,38*48   
DEBUG : GPS : 18:57:56.199 : $GPRMC,185753.00,A,4021.31071,S,17536.71153,E,0.493,345.44,180413,,,A*79  $GPGGA,185753.00,4021.31071,S,17536.71153,E,1,04,3.58,35.7,M,18.9,M,,*73  $GPGSV,2,1,05,08,78,205,37,09,20,226,27,17,13,322,32,19,36,131,21*78  $GPGSV,2,2,05,28,45,253,38*48   
DEBUG : GPS : 18:57:57.199 : $GPRMC,185754.00,A,4021.31067,S,17536.71148,E,0.923,347.51,180413,,,A*73  $GPGGA,185754.00,4021.31067,S,17536.71148,E,1,04,3.58,36.0,M,18.9,M,,*7D  $GPGSV,2,1,05,08,78,205,37,09,20,226,27,17,13,322,33,19,36,131,21*79  $GPGSV,2,2,05,28,45,253,38*48   
DEBUG : GPS : 18:57:58.199 : $GPRMC,185755.00,A,4021.31069,S,17536.71145,E,0.401,350.52,180413,,,A*79  $GPGGA,185755.00,4021.31069,S,17536.71145,E,1,04,3.58,36.3,M,18.9,M,,*7C  $GPGSV,2,1,05,08,78,205,36,09,20,226,27,17,13,322,33,19,36,131,20*79  $GPGSV,2,2,05,28,45,253,38*48   
DEBUG : GPS : 18:57:59.192 : $GPRMC,185756.00,A,4021.31088,S,17536.71095,E,0.102,,180413,,,A*60  $GPGGA,185756.00,4021.31088,S,17536.71095,E,1,04,3.58,36.6,M,18.9,M,,*79  $GPGSV,2,1,05,08,78,205,36,09,20,226,27,17,13,322,33,19,36,131,21*78  $GPGSV,2,2,05,28,45,253,39*49   
DEBUG : GPS : 18:58:00.199 : $GPRMC,185757.00,A,4021.31105,S,17536.71136,E,0.556,358.52,180413,,,A*7F  $GPGGA,185757.00,4021.31105,S,17536.71136,E,1,04,3.58,36.8,M,18.9,M,,*7A  $GPGSV,2,1,05,08,78,205,36,09,20,226,27,17,13,322,33,19,36,131,20*79  $GPGSV,2,2,05,28,45,253,39*49   
DEBUG : GPS : 18:58:01.197 : $GPRMC,185758.00,A,4021.31109,S,17536.71198,E,0.525,3.41,180413,,,A*73  $GPGGA,185758.00,4021.31109,S,17536.71198,E,1,04,3.58,36.9,M,18.9,M,,*7C  $GPGSV,2,1,05,08,78,205,36,09,20,226,26,17,13,322,33,19,36,131,20*78  $GPGSV,2,2,05,28,45,253,39*49   
DEBUG : GPS : 18:58:02.197 : $GPRMC,185759.00,A,4021.31120,S,17536.71264,E,0.631,9.08,180413,,,A*78  $GPGGA,185759.00,4021.31120,S,17536.71264,E,1,04,3.58,37.0,M,18.9,M,,*7E  $GPGSV,2,1,05,08,78,205,36,09,20,226,26,17,13,322,34,19,36,131,19*75  $GPGSV,2,2,05,28,45,253,40*47   
DEBUG : GPS : 18:58:03.199 : $GPRMC,185800.00,A,4021.31128,S,17536.71371,E,1.113,15.83,180413,,,A*4E  $GPGGA,185800.00,4021.31128,S,17536.71371,E,1,04,3.58,37.0,M,18.9,M,,*70  $GPGSV,2,1,05,08,78,205,36,09,20,226,26,17,13,322,34,19,36,131,18*74  $GPGSV,2,2,05,28,45,253,40*47   
DEBUG : GPS : 18:58:04.198 : $GPRMC,185801.00,A,4021.31126,S,17536.71478,E,0.643,20.07,180413,,,A*46  $GPGGA,185801.00,4021.31126,S,17536.71478,E,1,04,3.58,36.9,M,18.9,M,,*79  $GPGSV,2,1,05,08,78,205,36,09,20,226,25,17,13,322,34,19,36,131,16*79  $GPGSV,2,2,05,28,45,253,40*47   
DEBUG : GPS : 18:58:05.199 : $GPRMC,185802.00,A,4021.31117,S,17536.71588,E,0.817,24.08,180413,,,A*4D  $GPGGA,185802.00,4021.31117,S,17536.71588,E,1,04,3.58,36.8,M,18.9,M,,*77  $GPGSV,2,1,05,08,78,205,36,09,20,226,25,17,13,322,34,19,36,131,15*7A  $GPGSV,2,2,05,28,45,253,40*47   
DEBUG : GPS : 18:58:06.202 : $GPRMC,185803.00,A,4021.31109,S,17536.71677,E,0.813,28.51,180413,,,A*44  $GPGGA,185803.00,4021.31109,S,17536.71677,E,1,04,3.58,36.7,M,18.9,M,,*75  $GPGSV,2,1,05,08,78,205,36,09,20,226,25,17,13,322,34,19,36,131,15*7A  $GPGSV,2,2,05,28,45,253,40*47   
DEBUG : GPS : 18:58:07.196 : $GPRMC,185804.00,A,4021.31105,S,17536.71762,E,0.796,33.41,180413,,,A*43  $GPGGA,185804.00,4021.31105,S,17536.71762,E,1,04,3.58,36.7,M,18.9,M,,*7B  $GPGSV,2,1,05,08,78,205,36,09,20,226,25,17,13,322,34,19,36,131,14*7B  $GPGSV,2,2,05,28,45,253,40*47   
DEBUG : GPS : 18:58:08.199 : $GPRMC,185805.00,A,4021.31106,S,17536.71787,E,0.526,39.77,180413,,,A*4C  $GPGGA,185805.00,4021.31106,S,17536.71787,E,1,04,3.58,36.6,M,18.9,M,,*73  $GPGSV,2,1,05,08,78,205,36,09,20,226,25,17,13,322,34,19,36,131,14*7B  $GPGSV,2,2,05,28,45,253,40*47   
DEBUG : GPS : 18:58:09.196 : $GPRMC,185806.00,A,4021.31094,S,17536.71814,E,0.512,42.75,180413,,,A*49  $GPGGA,185806.00,4021.31094,S,17536.71814,E,1,04,3.58,36.6,M,18.9,M,,*7F  $GPGSV,2,1,05,08,78,205,36,09,20,226,25,17,13,322,34,19,36,131,14*7B  $GPGSV,2,2,05,28,45,253,40*47   
DEBUG : GPS : 18:58:10.191 : $GPRMC,185807.00,A,4021.31085,S,17536.71821,E,0.058,,180413,,,A*6F  $GPGGA,185807.00,4021.31085,S,17536.71821,E,1,04,3.58,36.6,M,18.9,M,,*78  $GPGSV,2,1,05,08,78,205,36,09,20,226,26,17,13,322,34,19,36,131,14*78  $GPGSV,2,2,05,28,45,253,39*49   
DEBUG : GPS : 18:58:11.198 : $GPRMC,185808.00,A,4021.31091,S,17536.71804,E,0.555,50.73,180413,,,A*45  $GPGGA,185808.00,4021.31091,S,17536.71804,E,1,04,3.58,36.6,M,18.9,M,,*75  $GPGSV,2,1,05,08,78,205,36,09,20,226,26,17,13,322,34,19,36,131,12*7E  $GPGSV,2,2,05,28,45,253,39*49   
DEBUG : GPS : 18:58:12.197 : $GPRMC,185809.00,A,4021.31100,S,17536.71765,E,0.562,59.86,180413,,,A*42  $GPGGA,185809.00,4021.31100,S,17536.71765,E,1,04,3.58,36.6,M,18.9,M,,*75  $GPGSV,2,1,05,08,78,205,36,09,20,226,26,17,13,322,34,19,36,131,10*7C  $GPGSV,2,2,05,28,45,253,39*49   
DEBUG : GPS : 18:58:13.197 : $GPRMC,185810.00,A,4021.31091,S,17536.71768,E,0.297,62.75,180413,,,A*47  $GPGGA,185810.00,4021.31091,S,17536.71768,E,1,04,3.58,36.7,M,18.9,M,,*78  $GPGSV,2,1,05,08,78,205,35,09,20,226,27,17,13,322,34,19,36,131,09*76  $GPGSV,2,2,05,28,45,252,38*49   
DEBUG : GPS : 18:58:14.199 : $GPRMC,185811.00,A,4021.31089,S,17536.71750,E,0.614,68.02,180413,,,A*41  $GPGGA,185811.00,4021.31089,S,17536.71750,E,1,04,3.58,36.8,M,18.9,M,,*74  $GPGSV,2,1,05,08,78,205,35,09,20,226,27,17,13,322,34,19,36,131,12*7C  $GPGSV,2,2,05,28,45,252,38*49   
DEBUG : GPS : 18:58:15.199 : $GPRMC,185812.00,A,4021.31085,S,17536.71728,E,0.357,73.29,180413,,,A*40  $GPGGA,185812.00,4021.31085,S,17536.71728,E,1,04,3.59,36.9,M,18.9,M,,*74  $GPGSV,2,1,05,08,78,205,35,09,20,226,27,17,13,322,34,19,36,131,14*7A  $GPGSV,2,2,05,28,45,252,38*49   
DEBUG : GPS : 18:58:16.199 : $GPRMC,185813.00,A,4021.31078,S,17536.71708,E,0.235,81.61,180413,,,A*45  $GPGGA,185813.00,4021.31078,S,17536.71708,E,1,04,3.59,36.9,M,18.9,M,,*75  $GPGSV,2,1,05,08,78,205,35,09,20,226,27,17,13,322,34,19,36,131,14*7A  $GPGSV,2,2,05,28,45,252,38*49   
DEBUG : GPS : 18:58:17.200 : $GPRMC,185814.00,A,4021.31075,S,17536.71675,E,0.308,90.86,180413,,,A*42  $GPGGA,185814.00,4021.31075,S,17536.71675,E,1,04,3.59,37.0,M,18.9,M,,*7C  $GPGSV,2,1,05,08,78,205,35,09,20,226,27,17,13,322,34,19,36,131,13*7D  $GPGSV,2,2,05,28,45,252,38*49   
DEBUG : GPS : 18:58:18.203 : $GPRMC,185815.00,A,4021.31057,S,17536.71636,E,0.478,80.78,180413,,,A*44  $GPGGA,185815.00,4021.31057,S,17536.71636,E,1,04,3.59,37.1,M,18.9,M,,*7B  $GPGSV,2,1,05,08,78,205,35,09,20,226,27,17,13,322,34,19,36,131,13*7D  $GPGSV,2,2,05,28,45,252,38*49   
DEBUG : GPS : 18:58:19.199 : $GPRMC,185816.00,A,4021.31042,S,17536.71626,E,0.273,91.09,180413,,,A*49  $GPGGA,185816.00,4021.31042,S,17536.71626,E,1,04,3.59,37.2,M,18.9,M,,*7E  $GPGSV,2,1,05,08,78,205,35,09,20,226,27,17,13,322,34,19,36,131,13*7D  $GPGSV,2,2,05,28,45,252,38*49   
DEBUG : GPS : 18:58:20.201 : $GPRMC,185817.00,A,4021.31024,S,17536.71582,E,0.805,101.78,180413,,,A*70  $GPGGA,185817.00,4021.31024,S,17536.71582,E,1,04,3.59,37.3,M,18.9,M,,*73  $GPGSV,2,1,05,08,78,205,35,09,20,226,27,17,13,322,34,19,36,131,16*78  $GPGSV,2,2,05,28,45,252,38*49   
DEBUG : GPS : 18:58:21.201 : $GPRMC,185818.00,A,4021.31001,S,17536.71609,E,0.755,101.79,180413,,,A*73  $GPGGA,185818.00,4021.31001,S,17536.71609,E,1,04,3.59,37.4,M,18.9,M,,*7C  $GPGSV,2,1,05,08,78,205,35,09,20,226,27,17,13,322,34,19,36,131,19*77  $GPGSV,2,2,05,28,45,252,39*48   
DEBUG : GPS : 18:58:22.202 : $GPRMC,185819.00,A,4021.30975,S,17536.71625,E,0.581,102.27,180413,,,A*74  $GPGGA,185819.00,4021.30975,S,17536.71625,E,1,04,3.59,37.6,M,18.9,M,,*7A  $GPGSV,2,1,05,08,78,205,35,09,20,226,28,17,13,322,34,19,36,131,20*72  $GPGSV,2,2,05,28,45,252,39*48   
DEBUG : GPS : 18:58:23.199 : $GPRMC,185820.00,A,4021.30944,S,17536.71620,E,0.228,105.34,180413,,,A*78  $GPGGA,185820.00,4021.30944,S,17536.71620,E,1,04,3.59,37.8,M,18.9,M,,*79  $GPGSV,2,1,05,08,78,205,35,09,20,226,28,17,13,322,34,19,36,131,22*70  $GPGSV,2,2,05,28,45,252,39*48   
DEBUG : GPS : 18:58:24.201 : $GPRMC,185821.00,A,4021.30917,S,17536.71591,E,0.336,95.78,180413,,,A*48  $GPGGA,185821.00,4021.30917,S,17536.71591,E,1,04,3.59,37.9,M,18.9,M,,*76  $GPGSV,2,1,05,08,78,205,35,09,20,226,28,17,13,322,33,19,36,131,23*76  $GPGSV,2,2,05,28,45,252,39*48   
DEBUG : GPS : 18:58:25.196 : $GPRMC,185822.00,A,4021.30888,S,17536.71602,E,0.120,,180413,,,A*6D  $GPGGA,185822.00,4021.30888,S,17536.71602,E,1,04,3.59,38.1,M,18.9,M,,*7C  $GPGSV,2,1,05,08,78,205,35,09,20,226,28,17,13,322,33,19,36,131,23*76  $GPGSV,2,2,05,28,45,252,38*49   
DEBUG : GPS : 18:58:26.198 : $GPRMC,185823.00,A,4021.30859,S,17536.71563,E,0.515,86.19,180413,,,A*4E  $GPGGA,185823.00,4021.30859,S,17536.71563,E,1,04,3.59,38.2,M,18.9,M,,*76  $GPGSV,2,1,05,08,78,205,36,09,20,226,28,17,13,322,33,19,36,131,24*72  $GPGSV,2,2,05,28,45,252,38*49   
DEBUG : GPS : 18:58:27.196 : $GPRMC,185824.00,A,4021.30836,S,17536.71521,E,0.075,,180413,,,A*6D  $GPGGA,185824.00,4021.30836,S,17536.71521,E,1,04,3.59,38.3,M,18.9,M,,*7F  $GPGSV,2,1,05,08,78,205,37,09,20,226,28,17,13,322,33,19,36,131,24*73  $GPGSV,2,2,05,28,45,252,38*49   
DEBUG : GPS : 18:58:28.201 : $GPRMC,185825.00,A,4021.30815,S,17536.71432,E,0.592,76.72,180413,,,A*48  $GPGGA,185825.00,4021.30815,S,17536.71432,E,1,04,3.59,38.3,M,18.9,M,,*7C  $GPGSV,2,1,05,08,78,205,37,09,20,226,28,17,13,322,33,19,36,131,24*73  $GPGSV,2,2,05,28,45,252,38*49   
DEBUG : GPS : 18:58:29.201 : $GPRMC,185826.00,A,4021.30805,S,17536.71344,E,0.981,87.10,180413,,,A*48  $GPGGA,185826.00,4021.30805,S,17536.71344,E,1,04,3.59,38.4,M,18.9,M,,*7F  $GPGSV,2,1,05,08,78,205,37,09,20,226,29,17,13,322,33,19,36,131,24*72  $GPGSV,2,2,05,28,45,252,37*46   
DEBUG : GPS : 18:58:30.199 : $GPRMC,185827.00,A,4021.30794,S,17536.71267,E,0.315,94.14,180413,,,A*4F  $GPGGA,185827.00,4021.30794,S,17536.71267,E,1,04,3.59,38.4,M,18.9,M,,*79  $GPGSV,2,1,05,08,78,205,37,09,20,226,28,17,13,322,33,19,36,131,23*74  $GPGSV,2,2,05,28,45,252,37*46   
DEBUG : GPS : 18:58:31.199 : $GPRMC,185828.00,A,4021.30776,S,17536.71154,E,0.944,104.68,180413,,,A*72  $GPGGA,185828.00,4021.30776,S,17536.71154,E,1,04,3.59,38.5,M,18.9,M,,*78  $GPGSV,2,1,05,08,78,205,37,09,20,226,28,17,13,322,33,19,36,131,23*74  $GPGSV,2,2,05,28,45,252,37*46   
DEBUG : GPS : 18:58:32.200 : $GPRMC,185829.00,A,4021.30763,S,17536.71051,E,0.654,113.12,180413,,,A*76  $GPGGA,185829.00,4021.30763,S,17536.71051,E,1,04,3.59,38.6,M,18.9,M,,*7A  $GPGSV,2,1,05,08,78,205,37,09,20,226,28,17,13,322,33,19,36,131,24*73  $GPGSV,2,2,05,28,45,252,37*46   
DEBUG : GPS : 18:58:33.200 : $GPRMC,185830.00,A,4021.30746,S,17536.70894,E,1.280,122.67,180413,,,A*75  $GPGGA,185830.00,4021.30746,S,17536.70894,E,1,04,3.59,38.7,M,18.9,M,,*74  $GPGSV,2,1,05,08,78,205,38,09,20,226,28,17,13,322,33,19,36,131,25*7D  $GPGSV,2,2,05,28,45,252,37*46   
DEBUG : GPS : 18:58:34.199 : $GPRMC,185831.00,A,4021.30720,S,17536.70827,E,0.671,132.78,180413,,,A*78  $GPGGA,185831.00,4021.30720,S,17536.70827,E,1,04,3.60,38.8,M,18.9,M,,*78  $GPGSV,2,1,05,08,78,205,37,09,20,226,29,17,13,322,33,19,36,131,26*70  $GPGSV,2,2,05,28,45,252,38*49   
DEBUG : GPS : 18:58:35.200 : $GPRMC,185832.00,A,4021.30682,S,17536.70802,E,0.568,125.29,180413,,,A*7C  $GPGGA,185832.00,4021.30682,S,17536.70802,E,1,04,3.60,38.8,M,18.9,M,,*75  $GPGSV,2,1,05,08,78,205,37,09,20,226,29,17,13,322,33,19,36,131,26*70  $GPGSV,2,2,05,28,45,252,38*49   
DEBUG : GPS : 18:58:36.203 : $GPRMC,185833.00,A,4021.30644,S,17536.70771,E,0.593,118.20,180413,,,A*7F  $GPGGA,185833.00,4021.30644,S,17536.70771,E,1,04,3.60,38.8,M,18.9,M,,*75  $GPGSV,2,1,05,08,78,205,38,09,20,226,29,17,13,322,33,19,36,131,26*7F  $GPGSV,2,2,05,28,45,252,38*49   
DEBUG : GPS : 18:58:37.200 : $GPRMC,185834.00,A,4021.30605,S,17536.70791,E,0.713,114.41,180413,,,A*72  $GPGGA,185834.00,4021.30605,S,17536.70791,E,1,04,3.60,38.8,M,18.9,M,,*79  $GPGSV,2,1,05,08,78,205,38,09,20,226,29,17,13,322,33,19,36,131,26*7F  $GPGSV,2,2,05,28,45,252,39*48   
DEBUG : GPS : 18:58:38.201 : $GPRMC,185835.00,A,4021.30573,S,17536.70812,E,0.412,106.78,180413,,,A*7E  $GPGGA,185835.00,4021.30573,S,17536.70812,E,1,04,3.60,38.6,M,18.9,M,,*70  $GPGSV,2,1,05,08,78,205,38,09,20,226,29,17,13,322,32,19,36,131,26*7E  $GPGSV,2,2,05,28,45,252,39*48   
DEBUG : GPS : 18:58:39.200 : $GPRMC,185836.00,A,4021.30539,S,17536.70870,E,0.316,102.33,180413,,,A*7F  $GPGGA,185836.00,4021.30539,S,17536.70870,E,1,04,3.60,38.6,M,18.9,M,,*79  $GPGSV,2,1,05,08,78,205,37,09,20,226,28,17,13,322,32,19,36,131,26*70  $GPGSV,2,2,05,28,45,252,39*48   
DEBUG : GPS : 18:58:40.199 : $GPRMC,185837.00,A,4021.30496,S,17536.70951,E,0.640,97.29,180413,,,A*48  $GPGGA,185837.00,4021.30496,S,17536.70951,E,1,04,3.60,38.4,M,18.9,M,,*7C  $GPGSV,2,1,05,08,78,205,37,09,20,226,29,17,13,322,32,19,36,131,26*71  $GPGSV,2,2,05,28,45,252,40*46   
DEBUG : GPS : 18:58:41.199 : $GPRMC,185838.00,A,4021.30474,S,17536.71004,E,0.303,98.05,180413,,,A*40  $GPGGA,185838.00,4021.30474,S,17536.71004,E,1,04,3.60,38.4,M,18.9,M,,*77  $GPGSV,2,1,05,08,78,205,37,09,20,226,28,17,13,322,33,19,36,131,25*72  $GPGSV,2,2,05,28,45,252,39*48   
DEBUG : GPS : 18:58:42.199 : $GPRMC,185839.00,A,4021.30459,S,17536.71057,E,0.455,98.44,180413,,,A*49  $GPGGA,185839.00,4021.30459,S,17536.71057,E,1,04,3.60,38.3,M,18.9,M,,*78  $GPGSV,2,1,05,08,78,205,37,09,20,226,28,17,13,322,33,19,36,131,24*73  $GPGSV,2,2,05,28,45,252,39*48   
DEBUG : GPS : 18:58:43.201 : $GPRMC,185840.00,A,4021.30456,S,17536.71119,E,1.003,99.97,180413,,,A*4A  $GPGGA,185840.00,4021.30456,S,17536.71119,E,1,04,3.60,38.2,M,18.9,M,,*73  $GPGSV,2,1,05,08,78,205,37,09,20,226,28,17,13,322,33,19,36,131,23*74  $GPGSV,2,2,05,28,45,252,39*48   
DEBUG : GPS : 18:58:44.203 : $GPRMC,185841.00,A,4021.30466,S,17536.71187,E,0.878,102.18,180413,,,A*7E  $GPGGA,185841.00,4021.30466,S,17536.71187,E,1,04,3.60,38.2,M,18.9,M,,*76  $GPGSV,2,1,05,08,78,205,37,09,20,226,28,17,13,322,32,19,36,131,23*75  $GPGSV,2,2,05,28,45,252,39*48   
DEBUG : GPS : 18:58:45.200 : $GPRMC,185842.00,A,4021.30478,S,17536.71229,E,0.646,104.90,180413,,,A*70  $GPGGA,185842.00,4021.30478,S,17536.71229,E,1,04,3.60,38.1,M,18.9,M,,*7E  $GPGSV,2,1,05,08,78,205,37,09,20,226,28,17,13,322,32,19,36,131,23*75  $GPGSV,2,2,05,28,45,252,38*49   
DEBUG : GPS : 18:58:46.202 : $GPRMC,185843.00,A,4021.30484,S,17536.71239,E,0.251,105.88,180413,,,A*79  $GPGGA,185843.00,4021.30484,S,17536.71239,E,1,04,3.60,38.1,M,18.9,M,,*7D  $GPGSV,2,1,05,08,78,205,37,09,20,226,27,17,13,322,32,19,36,131,23*7A  $GPGSV,2,2,05,28,45,252,38*49   
DEBUG : GPS : 18:58:47.203 : $GPRMC,185844.00,A,4021.30489,S,17536.71253,E,0.389,107.55,180413,,,A*79  $GPGGA,185844.00,4021.30489,S,17536.71253,E,1,04,3.60,38.0,M,18.9,M,,*7A  $GPGSV,2,1,05,08,78,205,37,09,20,226,27,17,13,322,33,19,36,131,23*7B  $GPGSV,2,2,05,28,45,252,38*49   
DEBUG : GPS : 18:58:48.196 : $GPRMC,185845.00,A,4021.30491,S,17536.71260,E,0.109,,180413,,,A*63  $GPGGA,185845.00,4021.30491,S,17536.71260,E,1,04,3.60,38.0,M,18.9,M,,*72  $GPGSV,2,1,05,08,78,205,36,09,20,226,27,17,13,322,32,19,36,131,22*7A  $GPGSV,2,2,05,28,45,252,37*46   
DEBUG : GPS : 18:58:49.201 : $GPRMC,185846.00,A,4021.30496,S,17536.71255,E,0.514,107.06,180413,,,A*77  $GPGGA,185846.00,4021.30496,S,17536.71255,E,1,04,3.60,37.9,M,18.9,M,,*76  $GPGSV,2,1,05,08,78,205,36,09,20,226,27,17,13,322,32,19,36,131,22*7A  $GPGSV,2,2,05,28,45,252,37*46   
DEBUG : GPS : 18:58:50.201 : $GPRMC,185847.00,A,4021.30499,S,17536.71205,E,0.636,117.96,180413,,,A*77  $GPGGA,185847.00,4021.30499,S,17536.71205,E,1,04,3.60,37.9,M,18.9,M,,*7D  $GPGSV,2,1,05,08,78,205,36,09,20,226,27,17,13,322,33,19,36,131,21*78  $GPGSV,2,2,05,28,45,252,38*49   
DEBUG : GPS : 18:58:51.201 : $GPRMC,185848.00,A,4021.30489,S,17536.71182,E,0.725,107.23,180413,,,A*79  $GPGGA,185848.00,4021.30489,S,17536.71182,E,1,04,3.60,37.9,M,18.9,M,,*7F  $GPGSV,2,1,05,08,78,205,36,09,20,226,27,17,13,322,33,19,36,131,22*7B  $GPGSV,2,2,05,28,45,252,38*49   
DEBUG : GPS : 18:58:52.194 : $GPRMC,185849.00,A,4021.30493,S,17536.71172,E,0.087,,180413,,,A*6A  $GPGGA,185849.00,4021.30493,S,17536.71172,E,1,04,3.60,37.9,M,18.9,M,,*7A  $GPGSV,2,1,05,08,78,205,37,09,20,226,27,17,13,322,33,19,36,131,23*7B  $GPGSV,2,2,05,28,45,252,39*48   
DEBUG : GPS : 18:58:53.195 : $GPRMC,185850.00,A,4021.30488,S,17536.71199,E,0.148,,180413,,,A*6F  $GPGGA,185850.00,4021.30488,S,17536.71199,E,1,04,3.61,37.9,M,18.9,M,,*7C  $GPGSV,2,1,05,08,78,205,37,09,20,226,27,17,13,322,34,19,36,131,23*7C  $GPGSV,2,2,05,28,45,252,39*48   
DEBUG : GPS : 18:58:54.195 : $GPRMC,185851.00,A,4021.30483,S,17536.71249,E,0.153,,180413,,,A*61  $GPGGA,185851.00,4021.30483,S,17536.71249,E,1,04,3.61,37.7,M,18.9,M,,*76  $GPGSV,2,1,05,08,78,205,36,09,20,226,28,17,13,322,34,19,36,131,25*74  $GPGSV,2,2,05,28,45,252,39*48   
DEBUG : GPS : 18:58:55.200 : $GPRMC,185852.00,A,4021.30471,S,17536.71299,E,0.255,107.70,180413,,,A*78  $GPGGA,185852.00,4021.30471,S,17536.71299,E,1,04,3.61,37.6,M,18.9,M,,*74  $GPGSV,2,1,05,08,78,205,37,09,20,226,27,17,13,322,34,19,36,131,23*7C  $GPGSV,2,2,05,28,45,252,40*46   
DEBUG : GPS : 18:58:56.200 : $GPRMC,185853.00,A,4021.30460,S,17536.71370,E,0.626,107.06,180413,,,A*7E  $GPGGA,185853.00,4021.30460,S,17536.71370,E,1,04,3.61,37.4,M,18.9,M,,*71  $GPGSV,2,1,05,08,78,205,36,09,20,226,28,17,13,322,34,19,36,131,24*75  $GPGSV,2,2,05,28,45,252,40*46   
DEBUG : GPS : 18:58:57.200 : $GPRMC,185854.00,A,4021.30444,S,17536.71431,E,0.487,104.16,180413,,,A*76  $GPGGA,185854.00,4021.30444,S,17536.71431,E,1,04,3.61,37.2,M,18.9,M,,*74  $GPGSV,2,1,05,08,78,205,37,09,20,226,28,17,13,322,34,19,36,131,24*74  $GPGSV,2,2,05,28,45,252,40*46   
DEBUG : GPS : 18:58:58.194 : $GPRMC,185855.00,A,4021.30431,S,17536.71485,E,0.084,,180413,,,A*61  $GPGGA,185855.00,4021.30431,S,17536.71485,E,1,04,3.61,37.0,M,18.9,M,,*7A  $GPGSV,2,1,05,08,78,205,37,09,20,226,28,17,13,322,34,19,36,131,24*74  $GPGSV,2,2,05,28,45,252,40*46   
DEBUG : GPS : 18:58:59.194 : $GPRMC,185856.00,A,4021.30423,S,17536.71507,E,0.184,,180413,,,A*6B  $GPGGA,185856.00,4021.30423,S,17536.71507,E,1,04,3.61,36.8,M,18.9,M,,*78  $GPGSV,2,1,05,08,78,205,37,09,20,226,28,17,13,322,34,19,36,131,24*74  $GPGSV,2,2,05,28,45,252,40*46   
DEBUG : GPS : 18:59:00.197 : $GPRMC,185857.00,A,4021.30414,S,17536.71535,E,0.122,,180413,,,A*63  $GPGGA,185857.00,4021.30414,S,17536.71535,E,1,04,3.61,36.6,M,18.9,M,,*72  $GPGSV,2,1,05,08,78,205,37,09,20,226,28,17,13,322,34,19,36,131,24*74  $GPGSV,2,2,05,28,45,252,40*46   
DEBUG : GPS : 18:59:01.201 : $GPRMC,185858.00,A,4021.30419,S,17536.71542,E,0.403,109.31,180413,,,A*73  $GPGGA,185858.00,4021.30419,S,17536.71542,E,1,04,3.61,36.4,M,18.9,M,,*72  $GPGSV,2,1,05,08,78,205,38,09,20,226,28,17,13,322,34,19,36,131,25*7A  $GPGSV,2,2,05,28,45,252,40*46   
DEBUG : GPS : 18:59:02.203 : $GPRMC,185859.00,A,4021.30425,S,17536.71520,E,0.350,116.39,180413,,,A*7E  $GPGGA,185859.00,4021.30425,S,17536.71520,E,1,04,3.61,36.3,M,18.9,M,,*7F  $GPGSV,2,1,05,08,78,205,38,09,20,226,28,17,13,322,34,19,36,131,24*7B  $GPGSV,2,2,05,28,45,252,40*46   
DEBUG : GPS : 18:59:03.203 : $GPRMC,185900.00,A,4021.30420,S,17536.71495,E,0.344,106.07,180413,,,A*70  $GPGGA,185900.00,4021.30420,S,17536.71495,E,1,04,3.61,36.2,M,18.9,M,,*79  $GPGSV,2,1,05,08,78,205,37,09,20,226,29,17,13,322,34,19,36,131,23*72  $GPGSV,2,2,05,28,45,252,39*48   
DEBUG : GPS : 18:59:04.203 : $GPRMC,185901.00,A,4021.30423,S,17536.71437,E,0.675,115.34,180413,,,A*7F  $GPGGA,185901.00,4021.30423,S,17536.71437,E,1,04,3.61,36.1,M,18.9,M,,*70  $GPGSV,2,1,05,08,79,205,37,09,20,226,29,17,13,322,34,19,36,131,23*73  $GPGSV,2,2,05,28,45,252,39*48   
DEBUG : GPS : 18:59:05.203 : $GPRMC,185902.00,A,4021.30437,S,17536.71403,E,0.276,119.57,180413,,,A*70  $GPGGA,185902.00,4021.30437,S,17536.71403,E,1,04,3.61,36.0,M,18.9,M,,*70  $GPGSV,2,1,05,08,79,205,37,09,21,226,29,17,13,322,34,19,36,131,23*72  $GPGSV,2,2,05,28,45,252,39*48   
DEBUG : GPS : 18:59:06.205 : $GPRMC,185903.00,A,4021.30436,S,17536.71392,E,0.424,111.97,180413,,,A*7A  $GPGGA,185903.00,4021.30436,S,17536.71392,E,1,04,3.61,35.9,M,18.9,M,,*75  $GPGSV,2,1,05,08,79,205,37,09,21,226,29,17,13,322,34,19,36,131,24*75  $GPGSV,2,2,05,28,45,252,39*48   
DEBUG : GPS : 18:59:07.201 : $GPRMC,185904.00,A,4021.30435,S,17536.71350,E,0.595,100.73,180413,,,A*71  $GPGGA,185904.00,4021.30435,S,17536.71350,E,1,04,3.61,35.8,M,18.9,M,,*7E  $GPGSV,2,1,05,08,79,205,37,09,21,226,29,17,13,322,34,19,36,131,25*74  $GPGSV,2,2,05,28,45,252,38*49   
DEBUG : GPS : 18:59:08.201 : $GPRMC,185905.00,A,4021.30455,S,17536.71287,E,0.798,109.46,180413,,,A*7D  $GPGGA,185905.00,4021.30455,S,17536.71287,E,1,04,3.61,35.8,M,18.9,M,,*72  $GPGSV,2,1,05,08,79,205,37,09,21,226,29,17,13,322,34,19,36,131,24*75  $GPGSV,2,2,05,28,45,252,39*48   
DEBUG : GPS : 18:59:09.202 : $GPRMC,185906.00,A,4021.30467,S,17536.71266,E,0.498,117.18,180413,,,A*77  $GPGGA,185906.00,4021.30467,S,17536.71266,E,1,04,3.61,35.8,M,18.9,M,,*7F  $GPGSV,2,1,05,08,79,205,37,09,21,226,29,17,13,322,34,19,36,131,22*73  $GPGSV,2,2,05,28,45,252,39*48   
DEBUG : GPS : 18:59:10.202 : $GPRMC,185907.00,A,4021.30479,S,17536.71267,E,0.426,123.16,180413,,,A*74  $GPGGA,185907.00,4021.30479,S,17536.71267,E,1,04,3.61,35.7,M,18.9,M,,*7F  $GPGSV,2,1,05,08,79,205,37,09,21,226,29,17,13,322,34,19,36,131,21*70  $GPGSV,2,2,05,28,45,252,39*48   
DEBUG : GPS : 18:59:11.199 : $GPRMC,185908.00,A,4021.30481,S,17536.71280,E,0.368,123.32,180413,,,A*7E  $GPGGA,185908.00,4021.30481,S,17536.71280,E,1,04,3.61,35.7,M,18.9,M,,*7E  $GPGSV,2,1,05,08,79,205,37,09,21,226,29,17,13,322,34,19,36,131,21*70  $GPGSV,2,2,05,28,45,252,39*48   
DEBUG : GPS : 18:59:12.202 : $GPRMC,185909.00,A,4021.30466,S,17536.71304,E,0.572,119.13,180413,,,A*7C  $GPGGA,185909.00,4021.30466,S,17536.71304,E,1,04,3.62,35.6,M,18.9,M,,*79  $GPGSV,2,1,05,08,79,205,37,09,21,226,28,17,13,322,34,19,36,131,21*71  $GPGSV,2,2,05,28,45,252,39*48   
DEBUG : GPS : 18:59:13.202 : $GPRMC,185910.00,A,4021.30458,S,17536.71314,E,0.294,125.89,180413,,,A*7B  $GPGGA,185910.00,4021.30458,S,17536.71314,E,1,04,3.62,35.6,M,18.9,M,,*7D  $GPGSV,2,1,05,08,79,205,37,09,21,226,28,17,14,322,34,19,36,131,21*76  $GPGSV,2,2,05,28,45,252,39*48   
DEBUG : GPS : 18:59:14.202 : $GPRMC,185911.00,A,4021.30450,S,17536.71342,E,0.240,130.05,180413,,,A*78  $GPGGA,185911.00,4021.30450,S,17536.71342,E,1,04,3.62,35.4,M,18.9,M,,*75  $GPGSV,2,1,05,08,79,205,37,09,21,226,28,17,14,322,34,19,36,131,21*76  $GPGSV,2,2,05,28,45,252,40*46   
DEBUG : GPS : 18:59:15.196 : $GPRMC,185912.00,A,4021.30437,S,17536.71375,E,0.085,,180413,,,A*6C  $GPGGA,185912.00,4021.30437,S,17536.71375,E,1,04,3.62,35.3,M,18.9,M,,*74  $GPGSV,2,1,05,08,79,205,36,09,21,226,28,17,14,322,34,19,35,131,21*74  $GPGSV,2,2,05,28,45,252,39*48   
DEBUG : GPS : 18:59:16.198 : $GPRMC,185913.00,A,4021.30422,S,17536.71429,E,0.153,,180413,,,A*6D  $GPGGA,185913.00,4021.30422,S,17536.71429,E,1,04,3.62,35.3,M,18.9,M,,*7F  $GPGSV,2,1,05,08,79,205,36,09,21,226,28,17,14,322,34,19,35,131,22*77  $GPGSV,2,2,05,28,45,252,39*48   
DEBUG : GPS : 18:59:17.204 : $GPRMC,185914.00,A,4021.30413,S,17536.71483,E,0.347,129.50,180413,,,A*7E  $GPGGA,185914.00,4021.30413,S,17536.71483,E,1,04,3.62,35.2,M,18.9,M,,*7B  $GPGSV,2,1,05,08,79,205,36,09,21,226,28,17,14,322,34,19,35,131,24*71  $GPGSV,2,2,05,28,45,252,39*48   
DEBUG : GPS : 18:59:18.207 : $GPRMC,185915.00,A,4021.30414,S,17536.71534,E,0.554,130.64,180413,,,A*7E  $GPGGA,185915.00,4021.30414,S,17536.71534,E,1,04,3.62,35.1,M,18.9,M,,*73  $GPGSV,2,1,05,08,79,205,36,09,21,226,28,17,14,322,34,19,35,131,23*76  $GPGSV,2,2,05,28,45,252,39*48   
DEBUG : GPS : 18:59:19.199 : $GPRMC,185916.00,A,4021.30407,S,17536.71562,E,0.040,,180413,,,A*62  $GPGGA,185916.00,4021.30407,S,17536.71562,E,1,04,3.62,35.1,M,18.9,M,,*71  $GPGSV,2,1,05,08,79,205,35,09,21,226,28,17,14,322,34,19,35,131,23*75  $GPGSV,2,2,05,28,45,252,39*48   
DEBUG : GPS : 18:59:20.203 : $GPRMC,185917.00,A,4021.30407,S,17536.71600,E,0.200,129.03,180413,,,A*75  $GPGGA,185917.00,4021.30407,S,17536.71600,E,1,04,3.62,35.1,M,18.9,M,,*77  $GPGSV,2,1,05,08,79,205,35,09,21,226,29,17,14,322,34,19,35,131,23*74  $GPGSV,2,2,05,28,45,252,38*49   
DEBUG : GPS : 18:59:21.197 : $GPRMC,185918.00,A,4021.30420,S,17536.71604,E,0.194,,180413,,,A*62  $GPGGA,185918.00,4021.30420,S,17536.71604,E,1,04,3.62,35.0,M,18.9,M,,*78  $GPGSV,2,1,05,08,79,205,35,09,21,226,29,17,14,322,34,19,35,131,23*74  $GPGSV,2,2,05,28,45,252,38*49   
DEBUG : GPS : 18:59:22.203 : $GPRMC,185919.00,A,4021.30437,S,17536.71604,E,0.553,134.56,180413,,,A*71  $GPGGA,185919.00,4021.30437,S,17536.71604,E,1,04,3.62,35.0,M,18.9,M,,*7F  $GPGSV,2,1,05,08,79,205,34,09,21,226,29,17,14,322,34,19,35,131,22*74  $GPGSV,2,2,05,28,45,252,38*49   
DEBUG : GPS : 18:59:23.203 : $GPRMC,185920.00,A,4021.30456,S,17536.71601,E,0.450,141.00,180413,,,A*7A  $GPGGA,185920.00,4021.30456,S,17536.71601,E,1,04,3.62,35.0,M,18.9,M,,*77  $GPGSV,2,1,05,08,79,205,34,09,21,226,30,17,14,322,34,19,35,131,21*7F  $GPGSV,2,2,05,28,45,252,37*46   
DEBUG : GPS : 18:59:24.203 : $GPRMC,185921.00,A,4021.30469,S,17536.71605,E,0.244,139.25,180413,,,A*78  $GPGGA,185921.00,4021.30469,S,17536.71605,E,1,04,3.62,35.0,M,18.9,M,,*7E  $GPGSV,2,1,05,08,79,205,34,09,21,226,29,17,14,322,34,19,35,131,21*77  $GPGSV,2,2,05,28,45,252,37*46   
DEBUG : GPS : 18:59:25.202 : $GPRMC,185922.00,A,4021.30485,S,17536.71618,E,0.419,140.54,180413,,,A*73  $GPGGA,185922.00,4021.30485,S,17536.71618,E,1,04,3.62,35.1,M,18.9,M,,*72  $GPGSV,2,1,05,08,79,205,34,09,21,226,29,17,14,322,34,19,35,131,21*77  $GPGSV,2,2,05,28,45,252,37*46   
DEBUG : GPS : 18:59:26.195 : $GPRMC,185923.00,A,4021.30496,S,17536.71625,E,0.171,,180413,,,A*6F  $GPGGA,185923.00,4021.30496,S,17536.71625,E,1,04,3.62,35.3,M,18.9,M,,*7D  $GPGSV,2,1,05,08,79,205,35,09,21,226,29,17,14,322,34,19,35,131,20*77  $GPGSV,2,2,05,28,45,252,37*46   
DEBUG : GPS : 18:59:27.202 : $GPRMC,185924.00,A,4021.30519,S,17536.71595,E,0.605,143.91,180413,,,A*72  $GPGGA,185924.00,4021.30519,S,17536.71595,E,1,04,3.62,35.4,M,18.9,M,,*73  $GPGSV,2,1,05,08,79,205,34,09,21,226,29,17,14,322,34,19,35,131,19*7C  $GPGSV,2,2,05,28,45,252,37*46   
DEBUG : GPS : 18:59:28.202 : $GPRMC,185925.00,A,4021.30534,S,17536.71611,E,0.334,143.07,180413,,,A*7B  $GPGGA,185925.00,4021.30534,S,17536.71611,E,1,04,3.62,35.5,M,18.9,M,,*73  $GPGSV,2,1,05,08,79,205,35,09,21,226,29,17,14,322,34,19,35,131,20*77  $GPGSV,2,2,05,28,45,252,37*46   
DEBUG : GPS : 18:59:29.202 : $GPRMC,185926.00,A,4021.30533,S,17536.71622,E,0.474,137.25,180413,,,A*7F  $GPGGA,185926.00,4021.30533,S,17536.71622,E,1,04,3.62,35.5,M,18.9,M,,*77  $GPGSV,2,1,05,08,79,205,35,09,21,226,29,17,14,322,34,19,35,131,20*77  $GPGSV,2,2,05,28,45,252,37*46   
DEBUG : GPS : 18:59:30.202 : $GPRMC,185927.00,A,4021.30529,S,17536.71606,E,0.432,131.08,180413,,,A*78  $GPGGA,185927.00,4021.30529,S,17536.71606,E,1,04,3.62,35.6,M,18.9,M,,*78  $GPGSV,2,1,05,08,79,205,36,09,21,226,29,17,14,322,34,19,35,131,20*74  $GPGSV,2,2,05,28,45,252,37*46   
DEBUG : GPS : 18:59:31.203 : $GPRMC,185928.00,A,4021.30522,S,17536.71594,E,0.303,126.41,180413,,,A*7A  $GPGGA,185928.00,4021.30522,S,17536.71594,E,1,04,3.63,35.7,M,18.9,M,,*74  $GPGSV,2,1,05,08,79,205,36,09,21,226,29,17,14,322,35,19,35,131,21*74  $GPGSV,2,2,05,28,45,252,37*46   
DEBUG : GPS : 18:59:32.203 : $GPRMC,185929.00,A,4021.30505,S,17536.71540,E,0.480,116.34,180413,,,A*7A  $GPGGA,185929.00,4021.30505,S,17536.71540,E,1,04,3.63,35.8,M,18.9,M,,*76  $GPGSV,2,1,05,08,79,205,37,09,21,226,29,17,14,322,34,19,35,131,21*74  $GPGSV,2,2,05,28,45,252,38*49   
DEBUG : GPS : 18:59:33.202 : $GPRMC,185930.00,A,4021.30495,S,17536.71489,E,0.407,127.50,180413,,,A*71  $GPGGA,185930.00,4021.30495,S,17536.71489,E,1,04,3.63,35.8,M,18.9,M,,*72  $GPGSV,2,1,05,08,79,205,37,09,21,226,30,17,14,322,35,19,35,131,22*7E  $GPGSV,2,2,05,28,45,252,37*46   
DEBUG : GPS : 18:59:34.200 : $GPRMC,185931.00,A,4021.30483,S,17536.71439,E,0.263,121.80,180413,,,A*73  $GPGGA,185931.00,4021.30483,S,17536.71439,E,1,04,3.63,35.9,M,18.9,M,,*7E  $GPGSV,2,1,05,08,79,205,37,09,21,226,30,17,14,322,35,19,35,131,23*7F  $GPGSV,2,2,05,28,45,252,37*46   
DEBUG : GPS : 18:59:35.203 : $GPRMC,185932.00,A,4021.30475,S,17536.71380,E,0.624,131.68,180413,,,A*7C  $GPGGA,185932.00,4021.30475,S,17536.71380,E,1,04,3.63,35.9,M,18.9,M,,*71  $GPGSV,2,1,05,08,79,205,37,09,21,226,30,17,14,322,34,19,35,131,23*7E  $GPGSV,2,2,05,28,45,252,37*46   
DEBUG : GPS : 18:59:36.204 : $GPRMC,185933.00,A,4021.30485,S,17536.71340,E,0.475,135.44,180413,,,A*72  $GPGGA,185933.00,4021.30485,S,17536.71340,E,1,04,3.63,36.0,M,18.9,M,,*79  $GPGSV,2,1,05,08,79,205,37,09,21,226,30,17,14,322,35,19,35,131,24*78  $GPGSV,2,2,05,28,45,252,37*46   
DEBUG : GPS : 18:59:37.204 : $GPRMC,185934.00,A,4021.30490,S,17536.71272,E,0.406,141.79,180413,,,A*78  $GPGGA,185934.00,4021.30490,S,17536.71272,E,1,04,3.63,36.0,M,18.9,M,,*7A  $GPGSV,2,1,05,08,79,205,38,09,21,226,30,17,14,322,35,19,35,131,24*77  $GPGSV,2,2,05,28,45,252,37*46   
DEBUG : GPS : 18:59:38.205 : $GPRMC,185935.00,A,4021.30487,S,17536.71223,E,0.579,151.27,180413,,,A*78  $GPGGA,185935.00,4021.30487,S,17536.71223,E,1,04,3.63,36.1,M,18.9,M,,*78  $GPGSV,2,1,05,08,79,205,37,09,21,226,29,17,14,322,35,19,35,131,23*77  $GPGSV,2,2,05,28,45,252,37*46   
DEBUG : GPS : 18:59:39.196 : $GPRMC,185936.00,A,4021.30487,S,17536.71173,E,0.097,,180413,,,A*66  $GPGGA,185936.00,4021.30487,S,17536.71173,E,1,04,3.63,36.1,M,18.9,M,,*7D  $GPGSV,2,1,05,08,79,205,37,09,21,226,29,17,14,322,34,19,35,131,23*76  $GPGSV,2,2,05,28,45,252,37*46   
DEBUG : GPS : 18:59:40.205 : $GPRMC,185937.00,A,4021.30492,S,17536.71114,E,0.421,156.93,180413,,,A*7D  $GPGGA,185937.00,4021.30492,S,17536.71114,E,1,04,3.63,36.2,M,18.9,M,,*7A  $GPGSV,2,1,05,08,79,205,37,09,21,226,29,17,14,322,34,19,35,131,23*76  $GPGSV,2,2,05,28,45,252,37*46   
DEBUG : GPS : 18:59:41.203 : $GPRMC,185938.00,A,4021.30491,S,17536.71076,E,0.461,164.79,180413,,,A*75  $GPGGA,185938.00,4021.30491,S,17536.71076,E,1,04,3.63,36.3,M,18.9,M,,*72  $GPGSV,2,1,05,08,79,205,37,09,21,226,30,17,14,322,34,19,35,131,22*7F  $GPGSV,2,2,05,28,45,252,37*46   
DEBUG : GPS : 18:59:42.197 : $GPRMC,185939.00,A,4021.30488,S,17536.71054,E,0.160,,180413,,,A*6B  $GPGGA,185939.00,4021.30488,S,17536.71054,E,1,04,3.63,36.4,M,18.9,M,,*7C  $GPGSV,2,1,05,08,79,205,38,09,21,226,30,17,14,322,34,19,35,131,22*70  $GPGSV,2,2,05,28,45,252,37*46   
DEBUG : GPS : 18:59:43.198 : $GPRMC,185940.00,A,4021.30488,S,17536.71037,E,0.071,,180413,,,A*61  $GPGGA,185940.00,4021.30488,S,17536.71037,E,1,04,3.63,36.4,M,18.9,M,,*77  $GPGSV,2,1,05,08,79,205,38,09,21,226,29,17,14,322,34,19,35,131,22*78  $GPGSV,2,2,05,28,45,252,37*46   
DEBUG : GPS : 18:59:44.203 : $GPRMC,185941.00,A,4021.30486,S,17536.71027,E,0.237,165.48,180413,,,A*7F  $GPGGA,185941.00,4021.30486,S,17536.71027,E,1,04,3.63,36.5,M,18.9,M,,*78  $GPGSV,2,1,05,08,79,205,38,09,21,226,29,17,14,322,34,19,35,131,22*78  $GPGSV,2,2,05,28,45,252,37*46   
DEBUG : GPS : 18:59:45.203 : $GPRMC,185942.00,A,4021.30478,S,17536.71002,E,0.331,155.37,180413,,,A*76  $GPGGA,185942.00,4021.30478,S,17536.71002,E,1,04,3.63,36.6,M,18.9,M,,*7E  $GPGSV,2,1,05,08,79,205,38,09,21,226,29,17,14,322,34,19,35,131,23*79  $GPGSV,2,2,05,28,45,252,38*49   
DEBUG : GPS : 18:59:46.203 : $GPRMC,185943.00,A,4021.30468,S,17536.71005,E,0.296,151.06,180413,,,A*7B  $GPGGA,185943.00,4021.30468,S,17536.71005,E,1,04,3.63,36.6,M,18.9,M,,*79  $GPGSV,2,1,05,08,79,205,38,09,21,226,29,17,14,322,34,19,35,131,23*79  $GPGSV,2,2,05,28,45,252,38*49   
DEBUG : GPS : 18:59:47.203 : $GPRMC,185944.00,A,4021.30464,S,17536.71033,E,0.231,151.12,180413,,,A*7D  $GPGGA,185944.00,4021.30464,S,17536.71033,E,1,04,3.63,36.5,M,18.9,M,,*74  $GPGSV,2,1,05,08,79,205,38,09,21,226,29,17,14,322,34,19,35,131,25*7F  $GPGSV,2,2,05,28,45,252,38*49   
DEBUG : GPS : 18:59:48.197 : $GPRMC,185945.00,A,4021.30444,S,17536.71094,E,0.183,,180413,,,A*61  $GPGGA,185945.00,4021.30444,S,17536.71094,E,1,04,3.63,36.4,M,18.9,M,,*7B  $GPGSV,2,1,05,08,79,205,38,09,21,226,29,17,14,322,34,19,35,131,24*7E  $GPGSV,2,2,05,28,45,252,39*48   
DEBUG : GPS : 18:59:49.204 : $GPRMC,185946.00,A,4021.30422,S,17536.71114,E,0.243,161.62,180413,,,A*78  $GPGGA,185946.00,4021.30422,S,17536.71114,E,1,04,3.64,36.3,M,18.9,M,,*71  $GPGSV,2,1,05,08,79,205,38,09,21,226,29,17,14,322,34,19,35,131,23*79  $GPGSV,2,2,05,28,45,252,39*48   
DEBUG : GPS : 18:59:50.202 : $GPRMC,185947.00,A,4021.30404,S,17536.71143,E,0.205,156.23,180413,,,A*7C  $GPGGA,185947.00,4021.30404,S,17536.71143,E,1,04,3.64,36.3,M,18.9,M,,*76  $GPGSV,2,1,05,08,79,205,38,09,21,226,29,17,14,322,34,19,35,131,23*79  $GPGSV,2,2,05,28,45,252,39*48   
DEBUG : GPS : 18:59:51.202 : $GPRMC,185948.00,A,4021.30398,S,17536.71154,E,0.218,161.71,180413,,,A*78  $GPGGA,185948.00,4021.30398,S,17536.71154,E,1,04,3.64,36.2,M,18.9,M,,*7C  $GPGSV,2,1,05,08,79,205,38,09,21,226,29,17,14,322,34,19,35,131,23*79  $GPGSV,2,2,05,28,45,252,39*48   
DEBUG : GPS : 18:59:52.203 : $GPRMC,185949.00,A,4021.30403,S,17536.71178,E,0.564,163.08,180413,,,A*72  $GPGGA,185949.00,4021.30403,S,17536.71178,E,1,04,3.64,36.1,M,18.9,M,,*75  $GPGSV,2,1,05,08,79,205,38,09,21,226,29,17,14,322,34,19,35,131,24*7E  $GPGSV,2,2,05,28,45,252,39*48   
DEBUG : GPS : 18:59:53.203 : $GPRMC,185950.00,A,4021.30394,S,17536.71174,E,0.579,171.96,180413,,,A*77  $GPGGA,185950.00,4021.30394,S,17536.71174,E,1,04,3.64,36.1,M,18.9,M,,*78  $GPGSV,2,1,05,08,79,205,38,09,21,226,30,17,14,322,34,19,35,131,25*77  $GPGSV,2,2,05,28,45,252,38*49   
DEBUG : GPS : 18:59:54.203 : $GPRMC,185951.00,A,4021.30398,S,17536.71170,E,0.476,177.63,180413,,,A*7C  $GPGGA,185951.00,4021.30398,S,17536.71170,E,1,04,3.64,36.0,M,18.9,M,,*70  $GPGSV,2,1,05,08,79,205,38,09,21,226,30,17,14,322,34,19,35,131,26*74  $GPGSV,2,2,05,28,45,252,38*49   
DEBUG : GPS : 18:59:55.203 : $GPRMC,185952.00,A,4021.30400,S,17536.71163,E,0.704,183.74,180413,,,A*70  $GPGGA,185952.00,4021.30400,S,17536.71163,E,1,04,3.64,35.9,M,18.9,M,,*7D  $GPGSV,2,1,05,08,79,205,37,09,21,226,30,17,14,322,34,19,35,131,27*7A  $GPGSV,2,2,05,28,45,252,38*49   
